ngo_id,ngo_name,latitude,longitude,remaining_capacity
1,Helping Hands NGO,12.9750,77.6000,250
2,Food Care Trust,12.9805,77.6102,180
3,Smile Foundation,12.9602,77.5801,300
4,Hope Shelter,12.9685,77.5908,120
5,Annapurna NGO,12.9850,77.6200,400
6,Kind Hearts NGO,12.9550,77.5750,100